[{"departure":"0426","tiploc":"THMSLGB","location":"LONDON GATEWAY GBRF","latLong":{"latitude":51.507212,"longitude":0.46488165}},{"departure":"0431","arrival":"0429","tiploc":"THMSLGD","location":"LONDON GATEWAY DEP LINE","latLong":{"latitude":51.507212,"longitude":0.46488165}},{"pass":"0434","tiploc":"THMS888","location":"THAMES HAVEN SIG UR888","latLong":{"latitude":51.507212,"longitude":0.46488165}},{"pass":"0438","tiploc":"THMS882","location":"THAMES HAVEN SIG UR882","latLong":{"latitude":51.507212,"longitude":0.46488165}},{"pass":"0439","tiploc":"THMSHVJ","location":"THAMES HAVEN JN","latLong":{"latitude":51.50365969,"longitude":0.423699922}},{"pass":"0446","tiploc":"TLBYTWN","location":"TILBURY TOWN","latLong":{"latitude":51.4625,"longitude":0.3539}},{"pass":"0450","tiploc":"GRAYS","location":"GRAYS","latLong":{"latitude":51.476,"longitude":0.3215}},{"pass":"0451","tiploc":"WTHRCKJ","location":"WEST THURROCK JN","latLong":{"latitude":51.47549943,"longitude":0.30040867}},{"pass":"0455","tiploc":"PURFLET","location":"PURFLEET","latLong":{"latitude":51.4812,"longitude":0.237}},{"pass":"0459","tiploc":"RNHAME","location":"RAINHAM","latLong":{"latitude":51.51672702,"longitude":0.190646827}},{"pass":"0502","tiploc":"DGNHMDC","location":"DAGENHAM DOCK","latLong":{"latitude":51.5261,"longitude":0.1464}},{"pass":"0504","tiploc":"RPLLRRJ","location":"RIPPLE LANE RENWICK RD JN","latLong":{"latitude":51.529078,"longitude":0.117832}},{"pass":"0506","tiploc":"BARKRUP","location":"BARKING RIVERSIDE UP JN"},{"pass":"0506","tiploc":"BARKING","location":"BARKING","latLong":{"latitude":51.5394,"longitude":0.0807}},{"pass":"0507","tiploc":"BARKNGJ","location":"BARKING STATION JUNCTION","latLong":{"latitude":51.541798,"longitude":0.076041}},{"pass":"0509","tiploc":"WDGRNPK","location":"WOODGRANGE PARK","latLong":{"latitude":51.549141,"longitude":0.044654}},{"pass":"0514","tiploc":"LEYTNMR","location":"LEYTON MIDLAND ROAD","latLong":{"latitude":51.5694,"longitude":-0.0071}},{"pass":"0520","tiploc":"STOTNHM","location":"SOUTH TOTTENHAM","latLong":{"latitude":51.580365,"longitude":-0.071771}},{"pass":"0525","tiploc":"HRGYPJN","location":"HARRINGAY PARK JN","latLong":{"latitude":51.57448369,"longitude":-0.108214069}},{"pass":"0528","tiploc":"UPRHLWY","location":"UPPER HOLLOWAY","latLong":{"latitude":51.563443,"longitude":-0.129732}},{"pass":"0531","tiploc":"JRDJ","location":"JUNCTION ROAD JN","latLong":{"latitude":51.558447,"longitude":-0.138472}},{"pass":"0535","tiploc":"GOSPLOK","location":"GOSPEL OAK","latLong":{"latitude":51.55542,"longitude":-0.151483}},{"pass":"0537","tiploc":"HMPSTDH","location":"HAMPSTEAD HEATH","latLong":{"latitude":51.555,"longitude":-0.165}},{"pass":"0539","tiploc":"WHMDSTD","location":"WEST HAMPSTEAD","latLong":{"latitude":51.5474,"longitude":-0.192}},{"pass":"0542","tiploc":"KENSLGJ","location":"KENSAL GREEN JN","latLong":{"latitude":51.532956,"longitude":-0.231987}},{"departure":"0549","arrival":"0547","tiploc":"HARLSJN","location":"HARLESDEN JN","latLong":{"latitude":51.535,"longitude":-0.255284}},{"departure":"0601","arrival":"0553","tiploc":"WLSDUDG","location":"WILLESDEN UP & DOWN GOODS"},{"pass":"0603","tiploc":"WLSDNBJ","location":"WILLESDEN SUDBURY JN","latLong":{"latitude":51.539266,"longitude":-0.268053}},{"pass":"0607","tiploc":"WMBY","location":"WEMBLEY CENTRAL","latLong":{"latitude":51.5519,"longitude":-0.2959}},{"pass":"0612","tiploc":"HROW","location":"HARROW & WEALDSTONE","latLong":{"latitude":51.591957,"longitude":-0.334288}},{"pass":"0620","tiploc":"WATFDJ","location":"WATFORD JUNCTION","latLong":{"latitude":51.664,"longitude":-0.3963}},{"pass":"0629","tiploc":"BONENDJ","location":"BOURNE END JN (HERTS)","latLong":{"latitude":51.746788,"longitude":-0.510811}},{"pass":"0638","tiploc":"TRING","location":"TRING","latLong":{"latitude":51.799762,"longitude":-0.621577}},{"pass":"0644","tiploc":"LEDBRNJ","location":"LEDBURN JN","latLong":{"latitude":51.8803097,"longitude":-0.669945434}},{"pass":"0653","tiploc":"BLTCHLY","location":"BLETCHLEY","latLong":{"latitude":51.995448,"longitude":-0.736266}},{"pass":"0659","tiploc":"MKNSCEN","location":"MILTON KEYNES CENTRAL","latLong":{"latitude":52.034063,"longitude":-0.774564}},{"pass":"0705","tiploc":"HANSLPJ","location":"HANSLOPE JN","latLong":{"latitude":52.116521,"longitude":-0.859024}},{"pass":"0717","tiploc":"NMPTN","location":"NORTHAMPTON","latLong":{"latitude":52.238266,"longitude":-0.907193}},{"pass":"0735","tiploc":"LNGBKBY","location":"LONG BUCKBY","latLong":{"latitude":52.294406,"longitude":-1.086095}},{"pass":"0742","tiploc":"DVNTYNJ","location":"DAVENTRY NORTH JN","latLong":{"latitude":52.3194,"longitude":-1.14776}},{"pass":"0746","tiploc":"HMTNJ","location":"HILLMORTON JN","latLong":{"latitude":52.370175,"longitude":-1.226504}},{"departure":"0800","arrival":"0751","tiploc":"RUGBY","location":"RUGBY","latLong":{"latitude":52.379059,"longitude":-1.250189}},{"pass":"0802","tiploc":"RUGBTVJ","location":"RUGBY TRENT VALLEY JN","latLong":{"latitude":52.380508,"longitude":-1.2701}},{"pass":"0810","tiploc":"BRINKLW","location":"BRINKLOW","latLong":{"latitude":52.42146512,"longitude":-1.349421225}},{"pass":"0818","tiploc":"ATLBRJN","location":"ATTLEBOROUGH SOUTH JN","latLong":{"latitude":52.523892,"longitude":-1.459933}},{"pass":"0820","tiploc":"NNTN","location":"NUNEATON","latLong":{"latitude":52.526666,"longitude":-1.464115}},{"pass":"0822","tiploc":"NNTNABJ","location":"NUNEATON ABBEY JN","latLong":{"latitude":52.529525,"longitude":-1.479405}},{"pass":"0841","tiploc":"WACRJN","location":"WHITACRE JN","latLong":{"latitude":52.520573,"longitude":-1.678757}},{"departure":"0950","arrival":"0843","tiploc":"HMSHBRF","location":"HAMS HALL GBRF","latLong":{"latitude":52.51688,"longitude":-1.698909}},{"pass":"0956","tiploc":"WACRJN 2","location":"WACRJN 2"},{"departure":"1004","arrival":"1003","tiploc":"KNGSBYJ","location":"KINGSBURY JN","latLong":{"latitude":52.55510295,"longitude":-1.677906802}},{"pass":"1008","tiploc":"KNGSBCJ","location":"KINGSBURY BRANCH JN","latLong":{"latitude":52.5697128,"longitude":-1.678390029}},{"departure":"1014","arrival":"1011","tiploc":"KNGSBSF","location":"KINGSBURY S.F.","latLong":{"latitude":52.57132492,"longitude":-1.676165036}},{"arrival":"1030","tiploc":"KNGSBCG","location":"BIRCH COPPICE GBRF","latLong":{"latitude":52.592373,"longitude":-1.631298}}]